2026-01-09 15:30:53.325 | PARAM_VALUE {param_id : INS_POS1_Y, param_value : 0.0, param_type : 9, param_count : 1065, param_index : 188}
2026-01-09 15:30:53.325 | PARAM_VALUE {param_id : INS_POS1_Z, param_value : 0.0, param_type : 9, param_count : 1065, param_index : 189}
2026-01-09 15:30:53.346 | PARAM_VALUE {param_id : INS_POS2_X, param_value : 0.0, param_type : 9, param_count : 1065, param_index : 190}
2026-01-09 15:30:53.539 | PARAM_VALUE {param_id : INS_POS2_Y, param_value : 0.0, param_type : 9, param_count : 1065, param_index : 191}
2026-01-09 15:30:53.539 | PARAM_VALUE {param_id : INS_POS2_Z, param_value : 0.0, param_type : 9, param_count : 1065, param_index : 192}
2026-01-09 15:30:53.539 | PARAM_VALUE {param_id : INS_POS3_X, param_value : 0.0, param_type : 9, param_count : 1065, param_index : 193}
2026-01-09 15:30:53.540 | PARAM_VALUE {param_id : INS_POS3_Y, param_value : 0.0, param_type : 9, param_count : 1065, param_index : 194}
2026-01-09 15:30:53.541 | PARAM_VALUE {param_id : INS_POS3_Z, param_value : 0.0, param_type : 9, param_count : 1065, param_index : 195}
2026-01-09 15:30:53.541 | PARAM_VALUE {param_id : INS_GYR_ID, param_value : 3604746.0, param_type : 6, param_count : 1065, param_index : 196}
2026-01-09 15:30:53.542 | PARAM_VALUE {param_id : INS_GYR2_ID, param_value : 2818322.0, param_type : 6, param_count : 1065, param_index : 197}
2026-01-09 15:30:53.543 | PARAM_VALUE {param_id : INS_GYR3_ID, param_value : 0.0, param_type : 6, param_count : 1065, param_index : 198}
2026-01-09 15:30:53.601 | AHRS {omegaIx : 0.005023493431508541, omegaIy : 0.003786049783229828, omegaIz : 0.0005126693286001682, accel_weight : 0.0, renorm_val : 0.0, error_rp : 0.0005166492192074656, error_yaw : 1.0}
2026-01-09 15:30:53.601 | GLOBAL_POSITION_INT {time_boot_ms : 843529, lat : 0, lon : 0, alt : 1110, relative_alt : 1111, vx : 0, vy : 0, vz : 0, hdg : 365}
2026-01-09 15:30:53.616 | SYSTEM_TIME {time_unix_usec : 0, time_boot_ms : 843529}
2026-01-09 15:30:53.616 | TERRAIN_REPORT {lat : 0, lon : 0, spacing : 100, terrain_height : 0.0, current_height : 0.0, pending : 0, loaded : 0}
2026-01-09 15:30:53.616 | UNKNOWN_285 {data:['fd', '31', '0', '0', 'd0', '1', '1', '1d', '1', '0', '9', 'df', 'c', '0', 'cb', '26', '74', '3f', '0', '0', '0', '0', '1c', 'f6', '99', 'be', '0', '0', '0', '0', '0', '0', 'c0', '7f', '0', '0', 'c0', '7f', '0', '0', 'c0', '7f', '0', '0', '0', '0', '2c', '0', '0', '0', '0', '0', 'c0', '7f', '0', '0', 'c0', '7f', '1', '70', 'ac']}
2026-01-09 15:30:53.633 | EKF_STATUS_REPORT {flags : 1024, velocity_variance : 0.0, pos_horiz_variance : 0.0, pos_vert_variance : 0.0, compass_variance : 0.0, terrain_alt_variance : 0.0}
2026-01-09 15:30:53.633 | VIBRATION {time_usec : 843529468, vibration_x : 0.01711258292198181, vibration_y : 0.038503386080265045, vibration_z : 0.012915678322315216, clipping_0 : 0, clipping_1 : 0, clipping_2 : 0}
2026-01-09 15:30:53.649 | BATTERY_STATUS {id : 0, battery_function : 0, type : 0, temperature : 32767, voltages : [24883, 65535, 65535, 65535, 65535, 65535, 65535, 65535, 65535, 65535], current_battery : 15, current_consumed : 49, energy_consumed : 44, battery_remaining : 99}
2026-01-09 15:30:53.649 | PARAM_VALUE {param_id : INS_ACC_ID, param_value : 3604746.0, param_type : 6, param_count : 1065, param_index : 199}
2026-01-09 15:30:53.649 | PARAM_VALUE {param_id : INS_ACC2_ID, param_value : 2818578.0, param_type : 6, param_count : 1065, param_index : 200}
2026-01-09 15:30:53.666 | PARAM_VALUE {param_id : INS_ACC3_ID, param_value : 0.0, param_type : 6, param_count : 1065, param_index : 201}
2026-01-09 15:30:53.666 | PARAM_VALUE {param_id : INS_FAST_SAMPLE, param_value : 3.0, param_type : 2, param_count : 1065, param_index : 202}
2026-01-09 15:30:53.682 | HEARTBEAT {type : 6, autopilot : 8, base_mode : 192, custom_mode : 0, system_status : 4, mavlink_version : 3}
2026-01-09 15:30:53.683 | REQUEST_DATA_STREAM {target_system : 1, target_component : 1, req_stream_id : 10, req_message_rate : 10, start_stop : 1}
2026-01-09 15:30:53.683 | ATTITUDE {time_boot_ms : 843624, roll : 0.007861397229135036, pitch : 0.06304308772087097, yaw : 0.063924141228199, rollspeed : 0.00020529981702566147, pitchspeed : -7.634004577994347e-05, yawspeed : 0.0013792985118925571}
2026-01-09 15:30:53.684 | VFR_HUD {airspeed : 0.0, groundspeed : 0.0, heading : 3, throttle : 0, alt : 1.100000023841858, climb : -0.03675699234008789}
2026-01-09 15:30:53.708 | HEARTBEAT {type : 2, autopilot : 3, base_mode : 89, custom_mode : 5, system_status : 3, mavlink_version : 3}
2026-01-09 15:30:53.723 | PARAM_VALUE {param_id : INS_LOG_BAT_CNT, param_value : 1024.0, param_type : 4, param_count : 1065, param_index : 203}
2026-01-09 15:30:53.723 | PARAM_VALUE {param_id : INS_LOG_BAT_MASK, param_value : 0.0, param_type : 2, param_count : 1065, param_index : 204}
2026-01-09 15:30:53.747 | PARAM_VALUE {param_id : INS_LOG_BAT_OPT, param_value : 0.0, param_type : 2, param_count : 1065, param_index : 205}
2026-01-09 15:30:53.747 | PARAM_VALUE {param_id : INS_LOG_BAT_LGIN, param_value : 20.0, param_type : 2, param_count : 1065, param_index : 206}
2026-01-09 15:30:53.837 | PARAM_VALUE {param_id : INS_LOG_BAT_LGCT, param_value : 32.0, param_type : 4, param_count : 1065, param_index : 207}
2026-01-09 15:30:53.837 | PARAM_VALUE {param_id : INS_ENABLE_MASK, param_value : 127.0, param_type : 2, param_count : 1065, param_index : 208}
2026-01-09 15:30:53.843 | PARAM_VALUE {param_id : INS_HNTCH_ENABLE, param_value : 0.0, param_type : 2, param_count : 1065, param_index : 209}
2026-01-09 15:30:53.845 | PARAM_VALUE {param_id : INS_HNTC2_ENABLE, param_value : 0.0, param_type : 2, param_count : 1065, param_index : 210}
2026-01-09 15:30:53.952 | PARAM_VALUE {param_id : INS_HNTC3_ENABLE, param_value : 0.0, param_type : 2, param_count : 1065, param_index : 211}
2026-01-09 15:30:53.952 | PARAM_VALUE {param_id : INS_GYRO_RATE, param_value : 1.0, param_type : 2, param_count : 1065, param_index : 212}
2026-01-09 15:30:53.952 | PARAM_VALUE {param_id : INS_TCAL1_ENABLE, param_value : 0.0, param_type : 2, param_count : 1065, param_index : 213}
2026-01-09 15:30:53.954 | PARAM_VALUE {param_id : INS_TCAL2_ENABLE, param_value : 0.0, param_type : 2, param_count : 1065, param_index : 214}
2026-01-09 15:30:54.043 | PARAM_VALUE {param_id : INS_TCAL3_ENABLE, param_value : 0.0, param_type : 2, param_count : 1065, param_index : 215}
2026-01-09 15:30:54.046 | PARAM_VALUE {param_id : INS_ACC1_CALTEMP, param_value : 47.22222137451172, param_type : 9, param_count : 1065, param_index : 216}
2026-01-09 15:30:54.048 | PARAM_VALUE {param_id : INS_GYR1_CALTEMP, param_value : 24.033817291259766, param_type : 9, param_count : 1065, param_index : 217}
2026-01-09 15:30:54.050 | PARAM_VALUE {param_id : INS_ACC2_CALTEMP, param_value : 47.5, param_type : 9, param_count : 1065, param_index : 218}
2026-01-09 15:30:54.099 | ATTITUDE {time_boot_ms : 844024, roll : 0.007855755276978016, pitch : 0.06304848194122314, yaw : 0.06462544947862625, rollspeed : -0.005058293230831623, pitchspeed : 0.004135864786803722, yawspeed : 0.0005538147524930537}
2026-01-09 15:30:54.100 | VFR_HUD {airspeed : 0.0, groundspeed : 0.0, heading : 3, throttle : 0, alt : 1.0699999332427979, climb : 0.0009226796682924032}
2026-01-09 15:30:54.116 | PARAM_VALUE {param_id : INS_GYR2_CALTEMP, param_value : 11.75, param_type : 9, param_count : 1065, param_index : 219}
2026-01-09 15:30:54.130 | PARAM_VALUE {param_id : INS_ACC3_CALTEMP, param_value : -300.0, param_type : 9, param_count : 1065, param_index : 220}
2026-01-09 15:30:54.133 | PARAM_VALUE {param_id : INS_GYR3_CALTEMP, param_value : -300.0, param_type : 9, param_count : 1065, param_index : 221}
2026-01-09 15:30:54.159 | PARAM_VALUE {param_id : INS_TCAL_OPTIONS, param_value : 0.0, param_type : 6, param_count : 1065, param_index : 222}
2026-01-09 15:30:54.187 | REQUEST_DATA_STREAM {target_system : 1, target_component : 1, req_stream_id : 11, req_message_rate : 10, start_stop : 1}
2026-01-09 15:30:54.241 | PARAM_VALUE {param_id : INS_RAW_LOG_OPT, param_value : 0.0, param_type : 4, param_count : 1065, param_index : 223}
2026-01-09 15:30:54.242 | PARAM_VALUE {param_id : WPNAV_SPEED, param_value : 1000.0, param_type : 9, param_count : 1065, param_index : 224}
2026-01-09 15:30:54.245 | PARAM_VALUE {param_id : WPNAV_RADIUS, param_value : 200.0, param_type : 9, param_count : 1065, param_index : 225}
2026-01-09 15:30:54.245 | PARAM_VALUE {param_id : WPNAV_SPEED_UP, param_value : 250.0, param_type : 9, param_count : 1065, param_index : 226}
2026-01-09 15:30:54.297 | SYS_STATUS {onboard_control_sensors_present : 1399979023, onboard_control_sensors_enabled : 1380056079, onboard_control_sensors_health : 1196555275, load : 166, voltage_battery : 24882, current_battery : 16, battery_remaining : 99, drop_rate_comm : 0, errors_comm : 0, errors_count1 : 0, errors_count2 : 0, errors_count3 : 0, errors_count4 : 0}
2026-01-09 15:30:54.297 | POWER_STATUS {Vcc : 5202, Vservo : 1, flags : 0}
2026-01-09 15:30:54.297 | MEMINFO {brkval : 0, freemem : 65535}
2026-01-09 15:30:54.312 | NAV_CONTROLLER_OUTPUT {nav_roll : -0.00024996453430503607, nav_pitch : -0.00030626499210484326, nav_bearing : 3, target_bearing : 0, wp_dist : 0, alt_error : 0.0, aspd_error : 0.0, xtrack_error : 0.0}
2026-01-09 15:30:54.312 | MISSION_CURRENT {seq : 0}
2026-01-09 15:30:54.312 | SERVO_OUTPUT_RAW {time_usec : 844226818, port : 0, servo1_raw : 1100, servo2_raw : 1100, servo3_raw : 1100, servo4_raw : 1100, servo5_raw : 0, servo6_raw : 0, servo7_raw : 0, servo8_raw : 0}
2026-01-09 15:30:54.329 | RC_CHANNELS {time_boot_ms : 844226, chancount : 16, chan1_raw : 1501, chan2_raw : 1501, chan3_raw : 1501, chan4_raw : 1501, chan5_raw : 1951, chan6_raw : 1501, chan7_raw : 1051, chan8_raw : 1051, chan9_raw : 1051, chan10_raw : 1051, chan11_raw : 1051, chan12_raw : 1501, chan13_raw : 1501, chan14_raw : 1126, chan15_raw : 1501, chan16_raw : 1501, chan17_raw : 0, chan18_raw : 0, rssi : 255}
2026-01-09 15:30:54.329 | RAW_IMU {time_usec : 844226851, xacc : 94, yacc : 13, zacc : -995, xgyro : -2, ygyro : -5, zgyro : 0, xmag : -149, ymag : 264, zmag : -149}
2026-01-09 15:30:54.329 | SCALED_IMU2 {time_boot_ms : 844226, xacc : 88, yacc : 4, zacc : -996, xgyro : 2, ygyro : -5, zgyro : 7, xmag : 0, ymag : 0, zmag : 0}
2026-01-09 15:30:54.346 | SCALED_PRESSURE {time_boot_ms : 844226, press_abs : 1004.3935546875, press_diff : 0.0, temperature : 4347}
2026-01-09 15:30:54.346 | SCALED_PRESSURE2 {time_boot_ms : 844226, press_abs : 1003.7947998046875, press_diff : 0.0, temperature : 4521}
2026-01-09 15:30:54.346 | GPS_RAW_INT {time_usec : 0, fix_type : 0, lat : 0, lon : 0, alt : 0, eph : 65535, epv : 65535, vel : 0, cog : 0, satellites_visible : 0}
2026-01-09 15:30:54.366 | UNKNOWN_11039 {data:['fd', '8', '0', '0', '1', '1', '1', '1f', '2b', '0', '15', '13', 'df', 'c', 'd7', 'c', 'e5', 'c', '5c', '8']}
2026-01-09 15:30:54.366 | PARAM_VALUE {param_id : WPNAV_SPEED_DN, param_value : 150.0, param_type : 9, param_count : 1065, param_index : 227}
2026-01-09 15:30:54.366 | PARAM_VALUE {param_id : WPNAV_ACCEL, param_value : 250.0, param_type : 9, param_count : 1065, param_index : 228}
2026-01-09 15:30:54.402 | PARAM_VALUE {param_id : WPNAV_ACCEL_Z, param_value : 100.0, param_type : 9, param_count : 1065, param_index : 229}
2026-01-09 15:30:54.402 | PARAM_VALUE {param_id : WPNAV_RFND_USE, param_value : 1.0, param_type : 2, param_count : 1065, param_index : 230}
2026-01-09 15:30:54.428 | PARAM_VALUE {param_id : WPNAV_JERK, param_value : 1.0, param_type : 9, param_count : 1065, param_index : 231}
2026-01-09 15:30:54.428 | PARAM_VALUE {param_id : WPNAV_TER_MARGIN, param_value : 10.0, param_type : 9, param_count : 1065, param_index : 232}
2026-01-09 15:30:54.448 | PARAM_VALUE {param_id : WPNAV_ACCEL_C, param_value : 0.0, param_type : 9, param_count : 1065, param_index : 233}
2026-01-09 15:30:54.448 | PARAM_VALUE {param_id : LOIT_ANG_MAX, param_value : 0.0, param_type : 9, param_count : 1065, param_index : 234}
2026-01-09 15:30:54.506 | ATTITUDE {time_boot_ms : 844424, roll : 0.007795093115419149, pitch : 0.06298290938138962, yaw : 0.06519564986228943, rollspeed : -0.0013144901022315025, pitchspeed : 0.0004612572956830263, yawspeed : 0.0020171389915049076}
2026-01-09 15:30:54.507 | VFR_HUD {airspeed : 0.0, groundspeed : 0.0, heading : 3, throttle : 0, alt : 1.1100000143051147, climb : 0.06431818008422852}
2026-01-09 15:30:54.518 | PARAM_VALUE {param_id : LOIT_SPEED, param_value : 1250.0, param_type : 9, param_count : 1065, param_index : 235}
2026-01-09 15:30:54.533 | PARAM_VALUE {param_id : LOIT_ACC_MAX, param_value : 500.0, param_type : 9, param_count : 1065, param_index : 236}
2026-01-09 15:30:54.534 | PARAM_VALUE {param_id : LOIT_BRK_ACCEL, param_value : 250.0, param_type : 9, param_count : 1065, param_index : 237}
2026-01-09 15:30:54.563 | PARAM_VALUE {param_id : LOIT_BRK_JERK, param_value : 500.0, param_type : 9, param_count : 1065, param_index : 238}
2026-01-09 15:30:54.638 | PARAM_VALUE {param_id : LOIT_BRK_DELAY, param_value : 1.0, param_type : 9, param_count : 1065, param_index : 239}
2026-01-09 15:30:54.641 | PARAM_VALUE {param_id : CIRCLE_RADIUS, param_value : 1000.0, param_type : 9, param_count : 1065, param_index : 240}
2026-01-09 15:30:54.652 | PARAM_VALUE {param_id : CIRCLE_RATE, param_value : 20.0, param_type : 9, param_count : 1065, param_index : 241}
2026-01-09 15:30:54.654 | PARAM_VALUE {param_id : CIRCLE_OPTIONS, param_value : 1.0, param_type : 4, param_count : 1065, param_index : 242}
2026-01-09 15:30:54.694 | HEARTBEAT {type : 6, autopilot : 8, base_mode : 192, custom_mode : 0, system_status : 4, mavlink_version : 3}
2026-01-09 15:30:54.697 | REQUEST_DATA_STREAM {target_system : 1, target_component : 1, req_stream_id : 12, req_message_rate : 3, start_stop : 1}
2026-01-09 15:30:54.728 | HEARTBEAT {type : 2, autopilot : 3, base_mode : 89, custom_mode : 5, system_status : 3, mavlink_version : 3}
2026-01-09 15:30:54.743 | PARAM_VALUE {param_id : ATC_SLEW_YAW, param_value : 6000.0, param_type : 9, param_count : 1065, param_index : 243}
2026-01-09 15:30:54.743 | PARAM_VALUE {param_id : ATC_ACCEL_Y_MAX, param_value : 27000.0, param_type : 9, param_count : 1065, param_index : 244}
2026-01-09 15:30:54.743 | PARAM_VALUE {param_id : ATC_RATE_FF_ENAB, param_value : 1.0, param_type : 2, param_count : 1065, param_index : 245}
2026-01-09 15:30:54.758 | PARAM_VALUE {param_id : ATC_ACCEL_R_MAX, param_value : 110000.0, param_type : 9, param_count : 1065, param_index : 246}
2026-01-09 15:30:54.851 | PARAM_VALUE {param_id : ATC_ACCEL_P_MAX, param_value : 110000.0, param_type : 9, param_count : 1065, param_index : 247}
2026-01-09 15:30:54.851 | PARAM_VALUE {param_id : ATC_ANGLE_BOOST, param_value : 1.0, param_type : 2, param_count : 1065, param_index : 248}
2026-01-09 15:30:54.853 | PARAM_VALUE {param_id : ATC_ANG_RLL_P, param_value : 4.5, param_type : 9, param_count : 1065, param_index : 249}
2026-01-09 15:30:54.855 | PARAM_VALUE {param_id : ATC_ANG_PIT_P, param_value : 4.5, param_type : 9, param_count : 1065, param_index : 250}
2026-01-09 15:30:54.904 | ATTITUDE {time_boot_ms : 844824, roll : 0.007865759544074535, pitch : 0.06304098665714264, yaw : 0.06579473614692688, rollspeed : 0.00020786141976714134, pitchspeed : 0.0004101586528122425, yawspeed : 0.0024954203981906176}
2026-01-09 15:30:54.904 | VFR_HUD {airspeed : 0.0, groundspeed : 0.0, heading : 3, throttle : 0, alt : 1.1299999952316284, climb : 0.014698505401611328}
2026-01-09 15:30:54.924 | PARAM_VALUE {param_id : ATC_ANG_YAW_P, param_value : 4.5, param_type : 9, param_count : 1065, param_index : 251}
2026-01-09 15:30:54.935 | PARAM_VALUE {param_id : ATC_ANG_LIM_TC, param_value : 1.0, param_type : 9, param_count : 1065, param_index : 252}
2026-01-09 15:30:54.935 | PARAM_VALUE {param_id : ATC_RATE_R_MAX, param_value : 0.0, param_type : 9, param_count : 1065, param_index : 253}
2026-01-09 15:30:54.955 | PARAM_VALUE {param_id : ATC_RATE_P_MAX, param_value : 0.0, param_type : 9, param_count : 1065, param_index : 254}
2026-01-09 15:30:54.955 | AHRS {omegaIx : 0.005023493431508541, omegaIy : 0.003786049783229828, omegaIz : 0.0005126693286001682, accel_weight : 0.0, renorm_val : 0.0, error_rp : 0.000785995798651129, error_yaw : 1.0}
2026-01-09 15:30:54.955 | GLOBAL_POSITION_INT {time_boot_ms : 844861, lat : 0, lon : 0, alt : 1130, relative_alt : 1137, vx : 0, vy : 0, vz : 0, hdg : 377}
2026-01-09 15:30:54.985 | SYSTEM_TIME {time_unix_usec : 0, time_boot_ms : 844861}
2026-01-09 15:30:54.985 | TERRAIN_REPORT {lat : 0, lon : 0, spacing : 100, terrain_height : 0.0, current_height : 0.0, pending : 0, loaded : 0}
2026-01-09 15:30:54.986 | UNKNOWN_285 {data:['fd', '31', '0', '0', '27', '1', '1', '1d', '1', '0', '3d', 'e4', 'c', '0', 'cb', '26', '74', '3f', '0', '0', '0', '0', '1c', 'f6', '99', 'be', '0', '0', '0', '0', '0', '0', 'c0', '7f', '0', '0', 'c0', '7f', '0', '0', 'c0', '7f', '0', '0', '0', '0', '2c', '0', '0', '0', '0', '0', 'c0', '7f', '0', '0', 'c0', '7f', '1', 'b', '7']}
2026-01-09 15:30:54.986 | EKF_STATUS_REPORT {flags : 1024, velocity_variance : 0.0, pos_horiz_variance : 0.0, pos_vert_variance : 0.0, compass_variance : 0.0, terrain_alt_variance : 0.0}
2026-01-09 15:30:54.986 | VIBRATION {time_usec : 844861966, vibration_x : 0.032028596848249435, vibration_y : 0.04184863716363907, vibration_z : 0.026529427617788315, clipping_0 : 0, clipping_1 : 0, clipping_2 : 0}
2026-01-09 15:30:55.017 | BATTERY_STATUS {id : 0, battery_function : 0, type : 0, temperature : 32767, voltages : [24886, 65535, 65535, 65535, 65535, 65535, 65535, 65535, 65535, 65535], current_battery : 19, current_consumed : 49, energy_consumed : 44, battery_remaining : 99}
2026-01-09 15:30:55.040 | PARAM_VALUE {param_id : ATC_RATE_Y_MAX, param_value : 0.0, param_type : 9, param_count : 1065, param_index : 255}
2026-01-09 15:30:55.058 | PARAM_VALUE {param_id : ATC_INPUT_TC, param_value : 0.15000000596046448, param_type : 9, param_count : 1065, param_index : 256}
2026-01-09 15:30:55.058 | PARAM_VALUE {param_id : ATC_LAND_R_MULT, param_value : 1.0, param_type : 9, param_count : 1065, param_index : 257}
2026-01-09 15:30:55.058 | PARAM_VALUE {param_id : ATC_LAND_P_MULT, param_value : 1.0, param_type : 9, param_count : 1065, param_index : 258}
2026-01-09 15:30:55.147 | PARAM_VALUE {param_id : ATC_LAND_Y_MULT, param_value : 1.0, param_type : 9, param_count : 1065, param_index : 259}
2026-01-09 15:30:55.147 | PARAM_VALUE {param_id : ATC_RAT_RLL_P, param_value : 0.13500000536441803, param_type : 9, param_count : 1065, param_index : 260}
2026-01-09 15:30:55.152 | PARAM_VALUE {param_id : ATC_RAT_RLL_I, param_value : 0.13500000536441803, param_type : 9, param_count : 1065, param_index : 261}
2026-01-09 15:30:55.152 | PARAM_VALUE {param_id : ATC_RAT_RLL_D, param_value : 0.003599999938160181, param_type : 9, param_count : 1065, param_index : 262}
2026-01-09 15:30:55.196 | REQUEST_DATA_STREAM {target_system : 1, target_component : 1, req_stream_id : 1, req_message_rate : 2, start_stop : 1}
2026-01-09 15:30:55.234 | PARAM_VALUE {param_id : ATC_RAT_RLL_FF, param_value : 0.0, param_type : 9, param_count : 1065, param_index : 263}
2026-01-09 15:30:55.234 | PARAM_VALUE {param_id : ATC_RAT_RLL_IMAX, param_value : 0.5, param_type : 9, param_count : 1065, param_index : 264}
2026-01-09 15:30:55.254 | PARAM_VALUE {param_id : ATC_RAT_RLL_FLTT, param_value : 20.0, param_type : 9, param_count : 1065, param_index : 265}
2026-01-09 15:30:55.254 | PARAM_VALUE {param_id : ATC_RAT_RLL_FLTE, param_value : 0.0, param_type : 9, param_count : 1065, param_index : 266}
2026-01-09 15:30:55.305 | ATTITUDE {time_boot_ms : 845224, roll : 0.007902874611318111, pitch : 0.06306422501802444, yaw : 0.06637273728847504, rollspeed : 0.002094872063025832, pitchspeed : -0.0011950498446822166, yawspeed : 0.00145558116491884}
2026-01-09 15:30:55.306 | VFR_HUD {airspeed : 0.0, groundspeed : 0.0, heading : 3, throttle : 0, alt : 1.100000023841858, climb : -0.0036764144897460938}
2026-01-09 15:30:55.334 | PARAM_VALUE {param_id : ATC_RAT_RLL_FLTD, param_value : 20.0, param_type : 9, param_count : 1065, param_index : 267}
2026-01-09 15:30:55.350 | PARAM_VALUE {param_id : ATC_RAT_RLL_SMAX, param_value : 0.0, param_type : 9, param_count : 1065, param_index : 268}
2026-01-09 15:30:55.351 | PARAM_VALUE {param_id : ATC_RAT_RLL_PDMX, param_value : 0.0, param_type : 9, param_count : 1065, param_index : 269}
2026-01-09 15:30:55.358 | PARAM_VALUE {param_id : ATC_RAT_RLL_D_FF, param_value : 0.0, param_type : 9, param_count : 1065, param_index : 270}
2026-01-09 15:30:55.442 | PARAM_VALUE {param_id : ATC_RAT_RLL_NTF, param_value : 0.0, param_type : 2, param_count : 1065, param_index : 271}
2026-01-09 15:30:55.442 | PARAM_VALUE {param_id : ATC_RAT_RLL_NEF, param_value : 0.0, param_type : 2, param_count : 1065, param_index : 272}
2026-01-09 15:30:55.457 | PARAM_VALUE {param_id : ATC_RAT_PIT_P, param_value : 0.13500000536441803, param_type : 9, param_count : 1065, param_index : 273}
2026-01-09 15:30:55.459 | PARAM_VALUE {param_id : ATC_RAT_PIT_I, param_value : 0.13500000536441803, param_type : 9, param_count : 1065, param_index : 274}
2026-01-09 15:30:55.555 | PARAM_VALUE {param_id : ATC_RAT_PIT_D, param_value : 0.003599999938160181, param_type : 9, param_count : 1065, param_index : 275}
2026-01-09 15:30:55.555 | PARAM_VALUE {param_id : ATC_RAT_PIT_FF, param_value : 0.0, param_type : 9, param_count : 1065, param_index : 276}
2026-01-09 15:30:55.557 | PARAM_VALUE {param_id : ATC_RAT_PIT_IMAX, param_value : 0.5, param_type : 9, param_count : 1065, param_index : 277}
2026-01-09 15:30:55.557 | PARAM_VALUE {param_id : ATC_RAT_PIT_FLTT, param_value : 20.0, param_type : 9, param_count : 1065, param_index : 278}
2026-01-09 15:30:55.658 | PARAM_VALUE {param_id : ATC_RAT_PIT_FLTE, param_value : 0.0, param_type : 9, param_count : 1065, param_index : 279}
2026-01-09 15:30:55.658 | PARAM_VALUE {param_id : ATC_RAT_PIT_FLTD, param_value : 20.0, param_type : 9, param_count : 1065, param_index : 280}
2026-01-09 15:30:55.661 | PARAM_VALUE {param_id : ATC_RAT_PIT_SMAX, param_value : 0.0, param_type : 9, param_count : 1065, param_index : 281}
2026-01-09 15:30:55.661 | PARAM_VALUE {param_id : ATC_RAT_PIT_PDMX, param_value : 0.0, param_type : 9, param_count : 1065, param_index : 282}
2026-01-09 15:30:55.698 | HEARTBEAT {type : 6, autopilot : 8, base_mode : 192, custom_mode : 0, system_status : 4, mavlink_version : 3}
2026-01-09 15:30:55.701 | REQUEST_DATA_STREAM {target_system : 1, target_component : 1, req_stream_id : 2, req_message_rate : 2, start_stop : 1}
2026-01-09 15:30:55.706 | ATTITUDE {time_boot_ms : 845624, roll : 0.007840510457754135, pitch : 0.06300902366638184, yaw : 0.06692150235176086, rollspeed : -0.0022255443036556244, pitchspeed : 0.0005997172556817532, yawspeed : 0.0014901236863806844}
2026-01-09 15:30:55.706 | VFR_HUD {airspeed : 0.0, groundspeed : 0.0, heading : 3, throttle : 0, alt : 1.1100000143051147, climb : 0.022983549162745476}
2026-01-09 15:30:55.736 | HEARTBEAT {type : 2, autopilot : 3, base_mode : 89, custom_mode : 5, system_status : 3, mavlink_version : 3}
2026-01-09 15:30:55.736 | PARAM_VALUE {param_id : ATC_RAT_PIT_D_FF, param_value : 0.0, param_type : 9, param_count : 1065, param_index : 283}
2026-01-09 15:30:55.752 | PARAM_VALUE {param_id : ATC_RAT_PIT_NTF, param_value : 0.0, param_type : 2, param_count : 1065, param_index : 284}
2026-01-09 15:30:55.752 | PARAM_VALUE {param_id : ATC_RAT_PIT_NEF, param_value : 0.0, param_type : 2, param_count : 1065, param_index : 285}
2026-01-09 15:30:55.762 | PARAM_VALUE {param_id : ATC_RAT_YAW_P, param_value : 0.18000000715255737, param_type : 9, param_count : 1065, param_index : 286}
2026-01-09 15:30:55.856 | PARAM_VALUE {param_id : ATC_RAT_YAW_I, param_value : 0.017999999225139618, param_type : 9, param_count : 1065, param_index : 287}
2026-01-09 15:30:55.857 | PARAM_VALUE {param_id : ATC_RAT_YAW_D, param_value : 0.0, param_type : 9, param_count : 1065, param_index : 288}
2026-01-09 15:30:55.858 | PARAM_VALUE {param_id : ATC_RAT_YAW_FF, param_value : 0.0, param_type : 9, param_count : 1065, param_index : 289}
2026-01-09 15:30:55.858 | PARAM_VALUE {param_id : ATC_RAT_YAW_IMAX, param_value : 0.5, param_type : 9, param_count : 1065, param_index : 290}
2026-01-09 15:30:55.955 | PARAM_VALUE {param_id : ATC_RAT_YAW_FLTT, param_value : 20.0, param_type : 9, param_count : 1065, param_index : 291}
2026-01-09 15:30:55.959 | PARAM_VALUE {param_id : ATC_RAT_YAW_FLTE, param_value : 2.5, param_type : 9, param_count : 1065, param_index : 292}
2026-01-09 15:30:55.962 | PARAM_VALUE {param_id : ATC_RAT_YAW_FLTD, param_value : 20.0, param_type : 9, param_count : 1065, param_index : 293}
2026-01-09 15:30:55.965 | PARAM_VALUE {param_id : ATC_RAT_YAW_SMAX, param_value : 0.0, param_type : 9, param_count : 1065, param_index : 294}
2026-01-09 15:30:56.041 | PARAM_VALUE {param_id : ATC_RAT_YAW_PDMX, param_value : 0.0, param_type : 9, param_count : 1065, param_index : 295}
2026-01-09 15:30:56.041 | PARAM_VALUE {param_id : ATC_RAT_YAW_D_FF, param_value : 0.0, param_type : 9, param_count : 1065, param_index : 296}
2026-01-09 15:30:56.063 | PARAM_VALUE {param_id : ATC_RAT_YAW_NTF, param_value : 0.0, param_type : 2, param_count : 1065, param_index : 297}
2026-01-09 15:30:56.066 | PARAM_VALUE {param_id : ATC_RAT_YAW_NEF, param_value : 0.0, param_type : 2, param_count : 1065, param_index : 298}
2026-01-09 15:30:56.111 | ATTITUDE {time_boot_ms : 846024, roll : 0.007909424602985382, pitch : 0.06291325390338898, yaw : 0.06758684664964676, rollspeed : 0.0007627871818840504, pitchspeed : -0.0009266026318073273, yawspeed : 0.0020813236478716135}
2026-01-09 15:30:56.111 | VFR_HUD {airspeed : 0.0, groundspeed : 0.0, heading : 3, throttle : 0, alt : 1.1399999856948853, climb : 0.020205974578857422}
2026-01-09 15:30:56.145 | PARAM_VALUE {param_id : ATC_THR_MIX_MIN, param_value : 0.10000000149011612, param_type : 9, param_count : 1065, param_index : 299}
2026-01-09 15:30:56.146 | PARAM_VALUE {param_id : ATC_THR_MIX_MAX, param_value : 0.5, param_type : 9, param_count : 1065, param_index : 300}
2026-01-09 15:30:56.146 | PARAM_VALUE {param_id : ATC_THR_MIX_MAN, param_value : 0.10000000149011612, param_type : 9, param_count : 1065, param_index : 301}
2026-01-09 15:30:56.168 | PARAM_VALUE {param_id : ATC_THR_G_BOOST, param_value : 0.0, param_type : 9, param_count : 1065, param_index : 302}
2026-01-09 15:30:56.200 | REQUEST_DATA_STREAM {target_system : 1, target_component : 1, req_stream_id : 3, req_message_rate : 2, start_stop : 1}
2026-01-09 15:30:56.241 | PARAM_VALUE {param_id : PSC_POSZ_P, param_value : 1.0, param_type : 9, param_count : 1065, param_index : 303}
2026-01-09 15:30:56.241 | PARAM_VALUE {param_id : PSC_VELZ_P, param_value : 5.0, param_type : 9, param_count : 1065, param_index : 304}
2026-01-09 15:30:56.263 | PARAM_VALUE {param_id : PSC_VELZ_I, param_value : 0.0, param_type : 9, param_count : 1065, param_index : 305}
2026-01-09 15:30:56.263 | PARAM_VALUE {param_id : PSC_VELZ_IMAX, param_value : 1000.0, param_type : 9, param_count : 1065, param_index : 306}
2026-01-09 15:30:56.275 | AHRS {omegaIx : 0.005023493431508541, omegaIy : 0.003786049783229828, omegaIz : 0.0005126693286001682, accel_weight : 0.0, renorm_val : 0.0, error_rp : 0.0006379155674949288, error_yaw : 1.0}
2026-01-09 15:30:56.275 | GLOBAL_POSITION_INT {time_boot_ms : 846194, lat : 0, lon : 0, alt : 1120, relative_alt : 1126, vx : 0, vy : 0, vz : 0, hdg : 388}
2026-01-09 15:30:56.292 | SYSTEM_TIME {time_unix_usec : 0, time_boot_ms : 846194}
2026-01-09 15:30:56.293 | TERRAIN_REPORT {lat : 0, lon : 0, spacing : 100, terrain_height : 0.0, current_height : 0.0, pending : 0, loaded : 0}
2026-01-09 15:30:56.312 | UNKNOWN_285 {data:['fd', '31', '0', '0', '6a', '1', '1', '1d', '1', '0', '72', 'e9', 'c', '0', 'cb', '26', '74', '3f', '0', '0', '0', '0', '1c', 'f6', '99', 'be', '0', '0', '0', '0', '0', '0', 'c0', '7f', '0', '0', 'c0', '7f', '0', '0', 'c0', '7f', '0', '0', '0', '0', '2c', '0', '0', '0', '0', '0', 'c0', '7f', '0', '0', 'c0', '7f', '1', 'db', '2b']}
2026-01-09 15:30:56.312 | EKF_STATUS_REPORT {flags : 1024, velocity_variance : 0.0, pos_horiz_variance : 0.0, pos_vert_variance : 0.0, compass_variance : 0.0, terrain_alt_variance : 0.0}
2026-01-09 15:30:56.312 | VIBRATION {time_usec : 846194523, vibration_x : 0.021762199699878693, vibration_y : 0.03548011928796768, vibration_z : 0.012830357998609543, clipping_0 : 0, clipping_1 : 0, clipping_2 : 0}
2026-01-09 15:30:56.329 | BATTERY_STATUS {id : 0, battery_function : 0, type : 0, temperature : 32767, voltages : [24882, 65535, 65535, 65535, 65535, 65535, 65535, 65535, 65535, 65535], current_battery : 16, current_consumed : 49, energy_consumed : 44, battery_remaining : 99}
2026-01-09 15:30:56.329 | SYS_STATUS {onboard_control_sensors_present : 1399979023, onboard_control_sensors_enabled : 1380056079, onboard_control_sensors_health : 1196555275, load : 173, voltage_battery : 24882, current_battery : 16, battery_remaining : 99, drop_rate_comm : 0, errors_comm : 0, errors_count1 : 0, errors_count2 : 0, errors_count3 : 0, errors_count4 : 0}
2026-01-09 15:30:56.329 | POWER_STATUS {Vcc : 5200, Vservo : 2, flags : 0}
2026-01-09 15:30:56.351 | MEMINFO {brkval : 0, freemem : 65535}
2026-01-09 15:30:56.351 | NAV_CONTROLLER_OUTPUT {nav_roll : -0.000249964912654832, nav_pitch : -0.0003062648174818605, nav_bearing : 3, target_bearing : 0, wp_dist : 0, alt_error : 0.0, aspd_error : 0.0, xtrack_error : 0.0}
2026-01-09 15:30:56.351 | MISSION_CURRENT {seq : 0}
2026-01-09 15:30:56.351 | SERVO_OUTPUT_RAW {time_usec : 846226807, port : 0, servo1_raw : 1100, servo2_raw : 1100, servo3_raw : 1100, servo4_raw : 1100, servo5_raw : 0, servo6_raw : 0, servo7_raw : 0, servo8_raw : 0}
2026-01-09 15:30:56.362 | RC_CHANNELS {time_boot_ms : 846226, chancount : 16, chan1_raw : 1501, chan2_raw : 1501, chan3_raw : 1501, chan4_raw : 1501, chan5_raw : 1951, chan6_raw : 1501, chan7_raw : 1051, chan8_raw : 1051, chan9_raw : 1051, chan10_raw : 1051, chan11_raw : 1051, chan12_raw : 1501, chan13_raw : 1501, chan14_raw : 1126, chan15_raw : 1501, chan16_raw : 1501, chan17_raw : 0, chan18_raw : 0, rssi : 255}
2026-01-09 15:30:56.363 | RAW_IMU {time_usec : 846226870, xacc : 90, yacc : 14, zacc : -995, xgyro : -6, ygyro : -2, zgyro : 0, xmag : -148, ymag : 263, zmag : -149}
2026-01-09 15:30:56.379 | SCALED_IMU2 {time_boot_ms : 846226, xacc : 81, yacc : 6, zacc : -996, xgyro : -2, ygyro : -1, zgyro : 6, xmag : 0, ymag : 0, zmag : 0}
2026-01-09 15:30:56.379 | SCALED_PRESSURE {time_boot_ms : 846226, press_abs : 1004.3931884765625, press_diff : 0.0, temperature : 4350}
2026-01-09 15:30:56.380 | SCALED_PRESSURE2 {time_boot_ms : 846226, press_abs : 1003.803955078125, press_diff : 0.0, temperature : 4520}
2026-01-09 15:30:56.399 | GPS_RAW_INT {time_usec : 0, fix_type : 0, lat : 0, lon : 0, alt : 0, eph : 65535, epv : 65535, vel : 0, cog : 0, satellites_visible : 0}
2026-01-09 15:30:56.399 | UNKNOWN_11039 {data:['fd', '8', '0', '0', '7a', '1', '1', '1f', '2b', '0', '15', '13', 'df', 'c', 'd9', 'c', 'e6', 'c', '3', '7b']}
2026-01-09 15:30:56.399 | PARAM_VALUE {param_id : PSC_VELZ_FLTE, param_value : 5.0, param_type : 9, param_count : 1065, param_index : 307}
2026-01-09 15:30:56.416 | PARAM_VALUE {param_id : PSC_VELZ_D, param_value : 0.0, param_type : 9, param_count : 1065, param_index : 308}
2026-01-09 15:30:56.416 | PARAM_VALUE {param_id : PSC_VELZ_FLTD, param_value : 5.0, param_type : 9, param_count : 1065, param_index : 309}
2026-01-09 15:30:56.416 | PARAM_VALUE {param_id : PSC_VELZ_FF, param_value : 0.0, param_type : 9, param_count : 1065, param_index : 310}
2026-01-09 15:30:56.436 | PARAM_VALUE {param_id : PSC_ACCZ_P, param_value : 0.5, param_type : 9, param_count : 1065, param_index : 311}
2026-01-09 15:30:56.459 | PARAM_VALUE {param_id : PSC_ACCZ_I, param_value : 1.0, param_type : 9, param_count : 1065, param_index : 312}
2026-01-09 15:30:56.459 | PARAM_VALUE {param_id : PSC_ACCZ_D, param_value : 0.0, param_type : 9, param_count : 1065, param_index : 313}
2026-01-09 15:30:56.459 | PARAM_VALUE {param_id : PSC_ACCZ_FF, param_value : 0.0, param_type : 9, param_count : 1065, param_index : 314}
2026-01-09 15:30:56.518 | ATTITUDE {time_boot_ms : 846424, roll : 0.007908240891993046, pitch : 0.06291365623474121, yaw : 0.06818511337041855, rollspeed : 0.00280505558475852, pitchspeed : -0.00238463981077075, yawspeed : 0.00192830350715667}
2026-01-09 15:30:56.518 | VFR_HUD {airspeed : 0.0, groundspeed : 0.0, heading : 3, throttle : 0, alt : 1.1100000143051147, climb : -0.016529560089111328}
2026-01-09 15:30:56.549 | PARAM_VALUE {param_id : PSC_ACCZ_IMAX, param_value : 800.0, param_type : 9, param_count : 1065, param_index : 315}
2026-01-09 15:30:56.549 | PARAM_VALUE {param_id : PSC_ACCZ_FLTT, param_value : 0.0, param_type : 9, param_count : 1065, param_index : 316}
2026-01-09 15:30:56.549 | PARAM_VALUE {param_id : PSC_ACCZ_FLTE, param_value : 20.0, param_type : 9, param_count : 1065, param_index : 317}
2026-01-09 15:30:56.572 | PARAM_VALUE {param_id : PSC_ACCZ_FLTD, param_value : 0.0, param_type : 9, param_count : 1065, param_index : 318}
2026-01-09 15:30:56.664 | PARAM_VALUE {param_id : PSC_ACCZ_SMAX, param_value : 0.0, param_type : 9, param_count : 1065, param_index : 319}
2026-01-09 15:30:56.664 | PARAM_VALUE {param_id : PSC_ACCZ_PDMX, param_value : 0.0, param_type : 9, param_count : 1065, param_index : 320}
2026-01-09 15:30:56.669 | PARAM_VALUE {param_id : PSC_ACCZ_D_FF, param_value : 0.0, param_type : 9, param_count : 1065, param_index : 321}
2026-01-09 15:30:56.669 | PARAM_VALUE {param_id : PSC_ACCZ_NTF, param_value : 0.0, param_type : 2, param_count : 1065, param_index : 322}
2026-01-09 15:30:56.709 | HEARTBEAT {type : 6, autopilot : 8, base_mode : 192, custom_mode : 0, system_status : 4, mavlink_version : 3}
2026-01-09 15:30:56.711 | REQUEST_DATA_STREAM {target_system : 1, target_component : 1, req_stream_id : 6, req_message_rate : 3, start_stop : 1}
2026-01-09 15:30:56.736 | HEARTBEAT {type : 2, autopilot : 3, base_mode : 89, custom_mode : 5, system_status : 3, mavlink_version : 3}
2026-01-09 15:30:56.750 | PARAM_VALUE {param_id : PSC_ACCZ_NEF, param_value : 0.0, param_type : 2, param_count : 1065, param_index : 323}
2026-01-09 15:30:56.750 | PARAM_VALUE {param_id : PSC_POSXY_P, param_value : 1.0, param_type : 9, param_count : 1065, param_index : 324}
2026-01-09 15:30:56.750 | PARAM_VALUE {param_id : PSC_VELXY_P, param_value : 2.0, param_type : 9, param_count : 1065, param_index : 325}
2026-01-09 15:30:56.773 | PARAM_VALUE {param_id : PSC_VELXY_I, param_value : 1.0, param_type : 9, param_count : 1065, param_index : 326}
2026-01-09 15:30:56.853 | PARAM_VALUE {param_id : PSC_VELXY_IMAX, param_value : 1000.0, param_type : 9, param_count : 1065, param_index : 327}
2026-01-09 15:30:56.853 | PARAM_VALUE {param_id : PSC_VELXY_FLTE, param_value : 5.0, param_type : 9, param_count : 1065, param_index : 328}
2026-01-09 15:30:56.867 | PARAM_VALUE {param_id : PSC_VELXY_D, param_value : 0.25, param_type : 9, param_count : 1065, param_index : 329}
2026-01-09 15:30:56.867 | PARAM_VALUE {param_id : PSC_VELXY_FLTD, param_value : 5.0, param_type : 9, param_count : 1065, param_index : 330}
2026-01-09 15:30:56.919 | ATTITUDE {time_boot_ms : 846824, roll : 0.007953458465635777, pitch : 0.06295598298311234, yaw : 0.0686447024345398, rollspeed : 0.0025115173775702715, pitchspeed : -0.0018326295539736748, yawspeed : 0.0012374799698591232}
2026-01-09 15:30:56.919 | VFR_HUD {airspeed : 0.0, groundspeed : 0.0, heading : 3, throttle : 0, alt : 1.0799999237060547, climb : -0.012865066528320312}
2026-01-09 15:30:56.949 | PARAM_VALUE {param_id : PSC_VELXY_FF, param_value : 0.0, param_type : 9, param_count : 1065, param_index : 331}
2026-01-09 15:30:56.952 | PARAM_VALUE {param_id : PSC_ANGLE_MAX, param_value : 0.0, param_type : 9, param_count : 1065, param_index : 332}
2026-01-09 15:30:56.952 | PARAM_VALUE {param_id : PSC_JERK_XY, param_value : 5.0, param_type : 9, param_count : 1065, param_index : 333}
2026-01-09 15:30:56.974 | PARAM_VALUE {param_id : PSC_JERK_Z, param_value : 5.0, param_type : 9, param_count : 1065, param_index : 334}
2026-01-09 15:30:57.058 | PARAM_VALUE {param_id : AHRS_GPS_GAIN, param_value : 1.0, param_type : 9, param_count : 1065, param_index : 335}
2026-01-09 15:30:57.060 | PARAM_VALUE {param_id : AHRS_GPS_USE, param_value : 1.0, param_type : 2, param_count : 1065, param_index : 336}
2026-01-09 15:30:57.067 | PARAM_VALUE {param_id : AHRS_YAW_P, param_value : 0.20000000298023224, param_type : 9, param_count : 1065, param_index : 337}
2026-01-09 15:30:57.070 | PARAM_VALUE {param_id : AHRS_RP_P, param_value : 0.20000000298023224, param_type : 9, param_count : 1065, param_index : 338}
2026-01-09 15:30:57.161 | PARAM_VALUE {param_id : AHRS_WIND_MAX, param_value : 0.0, param_type : 2, param_count : 1065, param_index : 339}
2026-01-09 15:30:57.161 | PARAM_VALUE {param_id : AHRS_TRIM_X, param_value : -0.019451381638646126, param_type : 9, param_count : 1065, param_index : 340}
2026-01-09 15:30:57.170 | PARAM_VALUE {param_id : AHRS_TRIM_Y, param_value : 0.029457734897732735, param_type : 9, param_count : 1065, param_index : 341}
2026-01-09 15:30:57.171 | PARAM_VALUE {param_id : AHRS_TRIM_Z, param_value : 0.0, param_type : 9, param_count : 1065, param_index : 342}
2026-01-09 15:30:57.208 | REQUEST_DATA_STREAM {target_system : 1, target_component : 1, req_stream_id : 10, req_message_rate : 10, start_stop : 1}
2026-01-09 15:30:57.250 | PARAM_VALUE {param_id : AHRS_ORIENTATION, param_value : 0.0, param_type : 2, param_count : 1065, param_index : 343}
2026-01-09 15:30:57.251 | PARAM_VALUE {param_id : AHRS_COMP_BETA, param_value : 0.10000000149011612, param_type : 9, param_count : 1065, param_index : 344}
2026-01-09 15:30:57.271 | PARAM_VALUE {param_id : AHRS_GPS_MINSATS, param_value : 6.0, param_type : 2, param_count : 1065, param_index : 345}
2026-01-09 15:30:57.271 | PARAM_VALUE {param_id : AHRS_EKF_TYPE, param_value : 3.0, param_type : 2, param_count : 1065, param_index : 346}
2026-01-09 15:30:57.322 | ATTITUDE {time_boot_ms : 847224, roll : 0.007919328287243843, pitch : 0.0630040168762207, yaw : 0.06931134313344955, rollspeed : 0.0005237511359155178, pitchspeed : -0.00022904854267835617, yawspeed : 0.0013377805007621646}
2026-01-09 15:30:57.322 | VFR_HUD {airspeed : 0.0, groundspeed : 0.0, heading : 3, throttle : 0, alt : 1.1299999952316284, climb : 0.06431818008422852}
2026-01-09 15:30:57.356 | PARAM_VALUE {param_id : AHRS_OPTIONS, param_value : 0.0, param_type : 4, param_count : 1065, param_index : 347}
2026-01-09 15:30:57.356 | PARAM_VALUE {param_id : MNT1_TYPE, param_value : 4.0, param_type : 2, param_count : 1065, param_index : 348}
2026-01-09 15:30:57.356 | PARAM_VALUE {param_id : MNT1_DEFLT_MODE, param_value : 3.0, param_type : 2, param_count : 1065, param_index : 349}
2026-01-09 15:30:57.378 | PARAM_VALUE {param_id : MNT1_RC_RATE, param_value : 0.0, param_type : 4, param_count : 1065, param_index : 350}
2026-01-09 15:30:57.466 | PARAM_VALUE {param_id : MNT1_ROLL_MIN, param_value : -30.0, param_type : 4, param_count : 1065, param_index : 351}
2026-01-09 15:30:57.466 | PARAM_VALUE {param_id : MNT1_ROLL_MAX, param_value : 30.0, param_type : 4, param_count : 1065, param_index : 352}
2026-01-09 15:30:57.471 | PARAM_VALUE {param_id : MNT1_PITCH_MIN, param_value : -90.0, param_type : 4, param_count : 1065, param_index : 353}
2026-01-09 15:30:57.471 | PARAM_VALUE {param_id : MNT1_PITCH_MAX, param_value : 20.0, param_type : 4, param_count : 1065, param_index : 354}
2026-01-09 15:30:57.570 | PARAM_VALUE {param_id : MNT1_YAW_MIN, param_value : -180.0, param_type : 4, param_count : 1065, param_index : 355}
2026-01-09 15:30:57.573 | PARAM_VALUE {param_id : MNT1_YAW_MAX, param_value : 180.0, param_type : 4, param_count : 1065, param_index : 356}
2026-01-09 15:30:57.573 | PARAM_VALUE {param_id : MNT1_RETRACT_X, param_value : 0.0, param_type : 9, param_count : 1065, param_index : 357}
2026-01-09 15:30:57.573 | PARAM_VALUE {param_id : MNT1_RETRACT_Y, param_value : 0.0, param_type : 9, param_count : 1065, param_index : 358}
2026-01-09 15:30:57.619 | AHRS {omegaIx : 0.005023493431508541, omegaIy : 0.003786049783229828, omegaIz : 0.0005126693286001682, accel_weight : 0.0, renorm_val : 0.0, error_rp : 0.0007762688328512013, error_yaw : 1.0}
2026-01-09 15:30:57.619 | GLOBAL_POSITION_INT {time_boot_ms : 847524, lat : 0, lon : 0, alt : 1100, relative_alt : 1105, vx : 0, vy : 0, vz : 0, hdg : 399}
2026-01-09 15:30:57.640 | SYSTEM_TIME {time_unix_usec : 0, time_boot_ms : 847524}
2026-01-09 15:30:57.640 | TERRAIN_REPORT {lat : 0, lon : 0, spacing : 100, terrain_height : 0.0, current_height : 0.0, pending : 0, loaded : 0}
2026-01-09 15:30:57.640 | UNKNOWN_285 {data:['fd', '31', '0', '0', 'ba', '1', '1', '1d', '1', '0', 'a4', 'ee', 'c', '0', 'cb', '26', '74', '3f', '0', '0', '0', '0', '1c', 'f6', '99', 'be', '0', '0', '0', '0', '0', '0', 'c0', '7f', '0', '0', 'c0', '7f', '0', '0', 'c0', '7f', '0', '0', '0', '0', '2c', '0', '0', '0', '0', '0', 'c0', '7f', '0', '0', 'c0', '7f', '1', '56', 'd5']}
2026-01-09 15:30:57.652 | EKF_STATUS_REPORT {flags : 1024, velocity_variance : 0.0, pos_horiz_variance : 0.0, pos_vert_variance : 0.0, compass_variance : 0.0, terrain_alt_variance : 0.0}
2026-01-09 15:30:57.652 | VIBRATION {time_usec : 847524562, vibration_x : 0.027471615001559258, vibration_y : 0.03171893209218979, vibration_z : 0.01347650121897459, clipping_0 : 0, clipping_1 : 0, clipping_2 : 0}
2026-01-09 15:30:57.668 | BATTERY_STATUS {id : 0, battery_function : 0, type : 0, temperature : 32767, voltages : [24886, 65535, 65535, 65535, 65535, 65535, 65535, 65535, 65535, 65535], current_battery : 15, current_consumed : 49, energy_consumed : 44, battery_remaining : 99}
2026-01-09 15:30:57.668 | PARAM_VALUE {param_id : MNT1_RETRACT_Z, param_value : 0.0, param_type : 9, param_count : 1065, param_index : 359}
2026-01-09 15:30:57.668 | PARAM_VALUE {param_id : MNT1_NEUTRAL_X, param_value : 0.0, param_type : 9, param_count : 1065, param_index : 360}
2026-01-09 15:30:57.688 | PARAM_VALUE {param_id : MNT1_NEUTRAL_Y, param_value : 0.0, param_type : 9, param_count : 1065, param_index : 361}
2026-01-09 15:30:57.688 | PARAM_VALUE {param_id : MNT1_NEUTRAL_Z, param_value : 0.0, param_type : 9, param_count : 1065, param_index : 362}
2026-01-09 15:30:57.709 | ATTITUDE {time_boot_ms : 847624, roll : 0.00790249090641737, pitch : 0.06301895529031754, yaw : 0.06986875087022781, rollspeed : -0.0014044404961168766, pitchspeed : -0.00027924077585339546, yawspeed : 0.0018941606394946575}
2026-01-09 15:30:57.714 | HEARTBEAT {type : 6, autopilot : 8, base_mode : 192, custom_mode : 0, system_status : 4, mavlink_version : 3}
2026-01-09 15:30:57.715 | REQUEST_DATA_STREAM {target_system : 1, target_component : 1, req_stream_id : 11, req_message_rate : 10, start_stop : 1}
2026-01-09 15:30:57.729 | VFR_HUD {airspeed : 0.0, groundspeed : 0.0, heading : 4, throttle : 0, alt : 1.090000033378601, climb : -0.07994651794433594}
2026-01-09 15:30:57.729 | HEARTBEAT {type : 2, autopilot : 3, base_mode : 89, custom_mode : 5, system_status : 3, mavlink_version : 3}
2026-01-09 15:30:57.764 | PARAM_VALUE {param_id : MNT1_LEAD_RLL, param_value : 0.0, param_type : 9, param_count : 1065, param_index : 363}
2026-01-09 15:30:57.764 | PARAM_VALUE {param_id : MNT1_LEAD_PTCH, param_value : 0.0, param_type : 9, param_count : 1065, param_index : 364}
2026-01-09 15:30:57.780 | PARAM_VALUE {param_id : MNT1_SYSID_DFLT, param_value : 0.0, param_type : 2, param_count : 1065, param_index : 365}
2026-01-09 15:30:57.780 | PARAM_VALUE {param_id : MNT1_DEVID, param_value : 0.0, param_type : 6, param_count : 1065, param_index : 366}
2026-01-09 15:30:57.872 | PARAM_VALUE {param_id : MNT1_OPTIONS, param_value : 0.0, param_type : 2, param_count : 1065, param_index : 367}
2026-01-09 15:30:57.872 | PARAM_VALUE {param_id : MNT2_TYPE, param_value : 0.0, param_type : 2, param_count : 1065, param_index : 368}
2026-01-09 15:30:57.874 | PARAM_VALUE {param_id : BATT_MONITOR, param_value : 4.0, param_type : 2, param_count : 1065, param_index : 369}
2026-01-09 15:30:57.874 | PARAM_VALUE {param_id : BATT_CAPACITY, param_value : 22000.0, param_type : 6, param_count : 1065, param_index : 370}
2026-01-09 15:30:57.977 | PARAM_VALUE {param_id : BATT_SERIAL_NUM, param_value : -1.0, param_type : 6, param_count : 1065, param_index : 371}
2026-01-09 15:30:57.980 | PARAM_VALUE {param_id : BATT_LOW_TIMER, param_value : 10.0, param_type : 2, param_count : 1065, param_index : 372}
2026-01-09 15:30:57.982 | PARAM_VALUE {param_id : BATT_FS_VOLTSRC, param_value : 0.0, param_type : 2, param_count : 1065, param_index : 373}
2026-01-09 15:30:57.985 | PARAM_VALUE {param_id : BATT_LOW_VOLT, param_value : 10.5, param_type : 9, param_count : 1065, param_index : 374}
2026-01-09 15:30:58.069 | PARAM_VALUE {param_id : BATT_LOW_MAH, param_value : 0.0, param_type : 9, param_count : 1065, param_index : 375}
2026-01-09 15:30:58.069 | PARAM_VALUE {param_id : BATT_CRT_VOLT, param_value : 0.0, param_type : 9, param_count : 1065, param_index : 376}
2026-01-09 15:30:58.078 | PARAM_VALUE {param_id : BATT_CRT_MAH, param_value : 0.0, param_type : 9, param_count : 1065, param_index : 377}
2026-01-09 15:30:58.079 | PARAM_VALUE {param_id : BATT_FS_LOW_ACT, param_value : 0.0, param_type : 2, param_count : 1065, param_index : 378}
2026-01-09 15:30:58.129 | ATTITUDE {time_boot_ms : 848024, roll : 0.00807824544608593, pitch : 0.06298504024744034, yaw : 0.0703887790441513, rollspeed : -0.00018716929480433464, pitchspeed : 0.00010842084884643555, yawspeed : 0.0008521336712874472}
2026-01-09 15:30:58.129 | COMMAND_LONG {target_system : 1, target_component : 1, command : 511, confirmation : 0, param1 : 242.0, param2 : 1000000.0, param3 : 0.0, param4 : 0.0, param5 : 0.0, param6 : 0.0, param7 : 0.0}
2026-01-09 15:30:58.129 | VFR_HUD {airspeed : 0.0, groundspeed : 0.0, heading : 4, throttle : 0, alt : 1.0799999237060547, climb : 0.01286983396857977}
2026-01-09 15:30:58.160 | PARAM_VALUE {param_id : BATT_FS_CRT_ACT, param_value : 0.0, param_type : 2, param_count : 1065, param_index : 379}
2026-01-09 15:30:58.162 | PARAM_VALUE {param_id : BATT_ARM_VOLT, param_value : 0.0, param_type : 9, param_count : 1065, param_index : 380}
2026-01-09 15:30:58.162 | PARAM_VALUE {param_id : BATT_ARM_MAH, param_value : 0.0, param_type : 6, param_count : 1065, param_index : 381}
2026-01-09 15:30:58.185 | PARAM_VALUE {param_id : BATT_OPTIONS, param_value : 0.0, param_type : 6, param_count : 1065, param_index : 382}
2026-01-09 15:30:58.205 | COMMAND_ACK {command : 511, result : 0}
2026-01-09 15:30:58.216 | REQUEST_DATA_STREAM {target_system : 1, target_component : 1, req_stream_id : 12, req_message_rate : 3, start_stop : 1}
2026-01-09 15:30:58.264 | PARAM_VALUE {param_id : BATT_VOLT_PIN, param_value : 9.0, param_type : 2, param_count : 1065, param_index : 383}
2026-01-09 15:30:58.264 | PARAM_VALUE {param_id : BATT_CURR_PIN, param_value : 8.0, param_type : 2, param_count : 1065, param_index : 384}
2026-01-09 15:30:58.279 | PARAM_VALUE {param_id : BATT_VOLT_MULT, param_value : 31.0, param_type : 9, param_count : 1065, param_index : 385}
2026-01-09 15:30:58.279 | PARAM_VALUE {param_id : BATT_AMP_PERVLT, param_value : 24.0, param_type : 9, param_count : 1065, param_index : 386}
2026-01-09 15:30:58.330 | SYS_STATUS {onboard_control_sensors_present : 1399979023, onboard_control_sensors_enabled : 1380056079, onboard_control_sensors_health : 1196555275, load : 169, voltage_battery : 24880, current_battery : 18, battery_remaining : 99, drop_rate_comm : 0, errors_comm : 0, errors_count1 : 0, errors_count2 : 0, errors_count3 : 0, errors_count4 : 0}
2026-01-09 15:30:58.330 | POWER_STATUS {Vcc : 5202, Vservo : 2, flags : 0}
2026-01-09 15:30:58.330 | MEMINFO {brkval : 0, freemem : 65535}
2026-01-09 15:30:58.353 | NAV_CONTROLLER_OUTPUT {nav_roll : -0.0002499647089280188, nav_pitch : -0.00030626473017036915, nav_bearing : 4, target_bearing : 0, wp_dist : 0, alt_error : 0.0, aspd_error : 0.0, xtrack_error : 0.0}
2026-01-09 15:30:58.355 | MISSION_CURRENT {seq : 0}
2026-01-09 15:30:58.356 | SERVO_OUTPUT_RAW {time_usec : 848226954, port : 0, servo1_raw : 1100, servo2_raw : 1100, servo3_raw : 1100, servo4_raw : 1100, servo5_raw : 0, servo6_raw : 0, servo7_raw : 0, servo8_raw : 0}
2026-01-09 15:30:58.367 | RC_CHANNELS {time_boot_ms : 848226, chancount : 16, chan1_raw : 1501, chan2_raw : 1501, chan3_raw : 1501, chan4_raw : 1501, chan5_raw : 1951, chan6_raw : 1501, chan7_raw : 1051, chan8_raw : 1051, chan9_raw : 1051, chan10_raw : 1051, chan11_raw : 1051, chan12_raw : 1501, chan13_raw : 1501, chan14_raw : 1126, chan15_raw : 1501, chan16_raw : 1501, chan17_raw : 0, chan18_raw : 0, rssi : 255}
2026-01-09 15:30:58.367 | RAW_IMU {time_usec : 848226988, xacc : 95, yacc : 12, zacc : -995, xgyro : -2, ygyro : -6, zgyro : 1, xmag : -150, ymag : 263, zmag : -148}
2026-01-09 15:30:58.367 | SCALED_IMU2 {time_boot_ms : 848227, xacc : 89, yacc : 4, zacc : -995, xgyro : 1, ygyro : -4, zgyro : 6, xmag : 0, ymag : 0, zmag : 0}
2026-01-09 15:30:58.380 | SCALED_PRESSURE {time_boot_ms : 848229, press_abs : 1004.394287109375, press_diff : 0.0, temperature : 4352}
2026-01-09 15:30:58.381 | SCALED_PRESSURE2 {time_boot_ms : 848229, press_abs : 1003.8268432617188, press_diff : 0.0, temperature : 4523}
2026-01-09 15:30:58.381 | GPS_RAW_INT {time_usec : 0, fix_type : 0, lat : 0, lon : 0, alt : 0, eph : 65535, epv : 65535, vel : 0, cog : 0, satellites_visible : 0}
2026-01-09 15:30:58.394 | UNKNOWN_11039 {data:['fd', '8', '0', '0', 'ec', '1', '1', '1f', '2b', '0', '17', '13', 'df', 'c', 'd7', 'c', 'e7', 'c', 'e1', 'fe']}
2026-01-09 15:30:58.394 | PARAM_VALUE {param_id : BATT_AMP_OFFSET, param_value : 0.0, param_type : 9, param_count : 1065, param_index : 387}
2026-01-09 15:30:58.394 | PARAM_VALUE {param_id : BATT_VLT_OFFSET, param_value : 0.0, param_type : 9, param_count : 1065, param_index : 388}
2026-01-09 15:30:58.426 | PARAM_VALUE {param_id : BATT2_MONITOR, param_value : 0.0, param_type : 2, param_count : 1065, param_index : 389}
2026-01-09 15:30:58.426 | PARAM_VALUE {param_id : BATT3_MONITOR, param_value : 0.0, param_type : 2, param_count : 1065, param_index : 390}
2026-01-09 15:30:58.462 | PARAM_VALUE {param_id : BATT4_MONITOR, param_value : 0.0, param_type : 2, param_count : 1065, param_index : 391}
2026-01-09 15:30:58.462 | PARAM_VALUE {param_id : BATT5_MONITOR, param_value : 0.0, param_type : 2, param_count : 1065, param_index : 392}
2026-01-09 15:30:58.482 | PARAM_VALUE {param_id : BATT6_MONITOR, param_value : 0.0, param_type : 2, param_count : 1065, param_index : 393}
2026-01-09 15:30:58.482 | PARAM_VALUE {param_id : BATT7_MONITOR, param_value : 0.0, param_type : 2, param_count : 1065, param_index : 394}
2026-01-09 15:30:58.532 | ATTITUDE {time_boot_ms : 848424, roll : 0.00800321064889431, pitch : 0.06304382532835007, yaw : 0.07093159854412079, rollspeed : -0.0012046229094266891, pitchspeed : 0.0006600511260330677, yawspeed : 0.0012452997034415603}
2026-01-09 15:30:58.532 | VFR_HUD {airspeed : 0.0, groundspeed : 0.0, heading : 4, throttle : 0, alt : 1.090000033378601, climb : 0.043179988861083984}
2026-01-09 15:30:58.565 | PARAM_VALUE {param_id : BATT8_MONITOR, param_value : 0.0, param_type : 2, param_count : 1065, param_index : 395}
2026-01-09 15:30:58.567 | PARAM_VALUE {param_id : BATT9_MONITOR, param_value : 0.0, param_type : 2, param_count : 1065, param_index : 396}
2026-01-09 15:30:58.567 | PARAM_VALUE {param_id : BRD_SER1_RTSCTS, param_value : 2.0, param_type : 2, param_count : 1065, param_index : 397}
2026-01-09 15:30:58.585 | PARAM_VALUE {param_id : BRD_SER2_RTSCTS, param_value : 2.0, param_type : 2, param_count : 1065, param_index : 398}
2026-01-09 15:30:58.676 | PARAM_VALUE {param_id : BRD_SAFETY_DEFLT, param_value : 0.0, param_type : 2, param_count : 1065, param_index : 399}
2026-01-09 15:30:58.677 | PARAM_VALUE {param_id : BRD_SERIAL_NUM, param_value : 0.0, param_type : 6, param_count : 1065, param_index : 400}
2026-01-09 15:30:58.681 | PARAM_VALUE {param_id : BRD_SAFETY_MASK, param_value : 16368.0, param_type : 6, param_count : 1065, param_index : 401}
2026-01-09 15:30:58.682 | PARAM_VALUE {param_id : BRD_SAFETYOPTION, param_value : 0.0, param_type : 4, param_count : 1065, param_index : 402}
2026-01-09 15:30:58.724 | HEARTBEAT {type : 6, autopilot : 8, base_mode : 192, custom_mode : 0, system_status : 4, mavlink_version : 3}
2026-01-09 15:30:58.726 | REQUEST_DATA_STREAM {target_system : 1, target_component : 1, req_stream_id : 1, req_message_rate : 2, start_stop : 1}
2026-01-09 15:30:58.747 | HEARTBEAT {type : 2, autopilot : 3, base_mode : 89, custom_mode : 5, system_status : 3, mavlink_version : 3}
2026-01-09 15:30:58.772 | PARAM_VALUE {param_id : BRD_RTC_TYPES, param_value : 1.0, param_type : 2, param_count : 1065, param_index : 403}
2026-01-09 15:30:58.772 | PARAM_VALUE {param_id : BRD_RTC_TZ_MIN, param_value : 0.0, param_type : 4, param_count : 1065, param_index : 404}
2026-01-09 15:30:58.772 | PARAM_VALUE {param_id : BRD_VBUS_MIN, param_value : 4.300000190734863, param_type : 9, param_count : 1065, param_index : 405}
2026-01-09 15:30:58.788 | PARAM_VALUE {param_id : BRD_VSERVO_MIN, param_value : 0.0, param_type : 9, param_count : 1065, param_index : 406}
2026-01-09 15:30:58.876 | PARAM_VALUE {param_id : BRD_SD_SLOWDOWN, param_value : 0.0, param_type : 2, param_count : 1065, param_index : 407}
2026-01-09 15:30:58.876 | PARAM_VALUE {param_id : BRD_PWM_VOLT_SEL, param_value : 0.0, param_type : 2, param_count : 1065, param_index : 408}
2026-01-09 15:30:58.885 | PARAM_VALUE {param_id : BRD_OPTIONS, param_value : 1.0, param_type : 6, param_count : 1065, param_index : 409}
2026-01-09 15:30:58.885 | PARAM_VALUE {param_id : BRD_BOOT_DELAY, param_value : 0.0, param_type : 4, param_count : 1065, param_index : 410}
2026-01-09 15:30:58.936 | ATTITUDE {time_boot_ms : 848824, roll : 0.007982068695127964, pitch : 0.0630192756652832, yaw : 0.07152379304170609, rollspeed : -0.0007104421965777874, pitchspeed : 0.0005811331793665886, yawspeed : 0.0013946890830993652}
2026-01-09 15:30:58.936 | VFR_HUD {airspeed : 0.0, groundspeed : 0.0, heading : 4, throttle : 0, alt : 1.0799999237060547, climb : 0.007355214562267065}
2026-01-09 15:30:58.967 | PARAM_VALUE {param_id : BRD_SD_MISSION, param_value : 0.0, param_type : 4, param_count : 1065, param_index : 411}
2026-01-09 15:30:58.969 | PARAM_VALUE {param_id : BRD_SD_FENCE, param_value : 0.0, param_type : 4, param_count : 1065, param_index : 412}
2026-01-09 15:30:58.969 | PARAM_VALUE {param_id : CAN_P1_DRIVER, param_value : 1.0, param_type : 2, param_count : 1065, param_index : 413}
2026-01-09 15:30:58.993 | PARAM_VALUE {param_id : CAN_P1_BITRATE, param_value : 1000000.0, param_type : 6, param_count : 1065, param_index : 414}
2026-01-09 15:30:58.993 | AHRS {omegaIx : 0.005035189911723137, omegaIy : 0.0037925178185105324, omegaIz : 0.0005138280685059726, accel_weight : 0.0, renorm_val : 0.0, error_rp : 0.0005359851638786495, error_yaw : 1.0}
2026-01-09 15:30:58.993 | GLOBAL_POSITION_INT {time_boot_ms : 848856, lat : 0, lon : 0, alt : 1080, relative_alt : 1082, vx : 0, vy : 0, vz : 0, hdg : 410}
2026-01-09 15:30:59.019 | SYSTEM_TIME {time_unix_usec : 0, time_boot_ms : 848856}
2026-01-09 15:30:59.019 | TERRAIN_REPORT {lat : 0, lon : 0, spacing : 100, terrain_height : 0.0, current_height : 0.0, pending : 0, loaded : 0}
2026-01-09 15:30:59.020 | UNKNOWN_285 {data:['fd', '31', '0', '0', '12', '1', '1', '1d', '1', '0', 'd9', 'f3', 'c', '0', 'cb', '26', '74', '3f', '0', '0', '0', '0', '1c', 'f6', '99', 'be', '0', '0', '0', '0', '0', '0', 'c0', '7f', '0', '0', 'c0', '7f', '0', '0', 'c0', '7f', '0', '0', '0', '0', '2c', '0', '0', '0', '0', '0', 'c0', '7f', '0', '0', 'c0', '7f', '1', '6e', '10']}
2026-01-09 15:30:59.020 | EKF_STATUS_REPORT {flags : 1024, velocity_variance : 0.0, pos_horiz_variance : 0.0, pos_vert_variance : 0.0, compass_variance : 0.0, terrain_alt_variance : 0.0}
2026-01-09 15:30:59.020 | VIBRATION {time_usec : 848857067, vibration_x : 0.024705756455659866, vibration_y : 0.024276556447148323, vibration_z : 0.013932064175605774, clipping_0 : 0, clipping_1 : 0, clipping_2 : 0}
2026-01-09 15:30:59.040 | BATTERY_STATUS {id : 0, battery_function : 0, type : 0, temperature : 32767, voltages : [24883, 65535, 65535, 65535, 65535, 65535, 65535, 65535, 65535, 65535], current_battery : 16, current_consumed : 49, energy_consumed : 44, battery_remaining : 99}
2026-01-09 15:30:59.072 | PARAM_VALUE {param_id : CAN_P1_FDBITRATE, param_value : 4.0, param_type : 6, param_count : 1065, param_index : 415}
2026-01-09 15:30:59.072 | PARAM_VALUE {param_id : CAN_P1_OPTIONS, param_value : 0.0, param_type : 6, param_count : 1065, param_index : 416}
2026-01-09 15:30:59.079 | PARAM_VALUE {param_id : CAN_P2_DRIVER, param_value : 0.0, param_type : 2, param_count : 1065, param_index : 417}
2026-01-09 15:30:59.079 | PARAM_VALUE {param_id : CAN_D1_PROTOCOL, param_value : 1.0, param_type : 2, param_count : 1065, param_index : 418}
2026-01-09 15:30:59.177 | PARAM_VALUE {param_id : CAN_D1_UC_NODE, param_value : 10.0, param_type : 2, param_count : 1065, param_index : 419}
2026-01-09 15:30:59.177 | PARAM_VALUE {param_id : CAN_D1_UC_SRV_BM, param_value : 0.0, param_type : 6, param_count : 1065, param_index : 420}
2026-01-09 15:30:59.190 | PARAM_VALUE {param_id : CAN_D1_UC_ESC_BM, param_value : 0.0, param_type : 6, param_count : 1065, param_index : 421}
2026-01-09 15:30:59.193 | PARAM_VALUE {param_id : CAN_D1_UC_SRV_RT, param_value : 50.0, param_type : 4, param_count : 1065, param_index : 422}
2026-01-09 15:30:59.227 | REQUEST_DATA_STREAM {target_system : 1, target_component : 1, req_stream_id : 2, req_message_rate : 2, start_stop : 1}
2026-01-09 15:30:59.268 | PARAM_VALUE {param_id : CAN_D1_UC_OPTION, param_value : 0.0, param_type : 4, param_count : 1065, param_index : 423}
2026-01-09 15:30:59.269 | PARAM_VALUE {param_id : CAN_D1_UC_NTF_RT, param_value : 20.0, param_type : 4, param_count : 1065, param_index : 424}
2026-01-09 15:30:59.288 | PARAM_VALUE {param_id : CAN_D1_UC_ESC_OF, param_value : 0.0, param_type : 2, param_count : 1065, param_index : 425}
2026-01-09 15:30:59.288 | PARAM_VALUE {param_id : CAN_D1_UC_POOL, param_value : 16384.0, param_type : 4, param_count : 1065, param_index : 426}
2026-01-09 15:30:59.339 | ATTITUDE {time_boot_ms : 849224, roll : 0.007979444228112698, pitch : 0.06299106031656265, yaw : 0.07212303578853607, rollspeed : -0.0001735803671181202, pitchspeed : -0.00028248224407434464, yawspeed : 0.00014495919458568096}
2026-01-09 15:30:59.340 | VFR_HUD {airspeed : 0.0, groundspeed : 0.0, heading : 4, throttle : 0, alt : 1.1200000047683716, climb : -0.004594325087964535}
2026-01-09 15:30:59.374 | PARAM_VALUE {param_id : CAN_D1_UC_ESC_RV, param_value : 0.0, param_type : 6, param_count : 1065, param_index : 427}
2026-01-09 15:30:59.374 | PARAM_VALUE {param_id : CAN_D1_UC_RLY_RT, param_value : 0.0, param_type : 4, param_count : 1065, param_index : 428}
2026-01-09 15:30:59.376 | PARAM_VALUE {param_id : CAN_D1_UC_SER_EN, param_value : 0.0, param_type : 2, param_count : 1065, param_index : 429}
2026-01-09 15:30:59.394 | PARAM_VALUE {param_id : CAN_D1_PROTOCOL2, param_value : 0.0, param_type : 2, param_count : 1065, param_index : 430}
2026-01-09 15:30:59.470 | PARAM_VALUE {param_id : CAN_D2_PROTOCOL, param_value : 1.0, param_type : 2, param_count : 1065, param_index : 431}
2026-01-09 15:30:59.470 | PARAM_VALUE {param_id : CAN_D2_PROTOCOL2, param_value : 0.0, param_type : 2, param_count : 1065, param_index : 432}
2026-01-09 15:30:59.490 | PARAM_VALUE {param_id : CAN_SLCAN_CPORT, param_value : 0.0, param_type : 2, param_count : 1065, param_index : 433}
2026-01-09 15:30:59.490 | PARAM_VALUE {param_id : CAN_SLCAN_SERNUM, param_value : -1.0, param_type : 2, param_count : 1065, param_index : 434}
